[
{
"stationID":1,
"stationName":"大连海域",
"longitude":121.682569,
"latitude":38.878518,
"forecastValue1":0.9,
"forecastValue2":0.4,
"forecastValue3":0.3,
"forecastValue4":NaN,
"forecastValue5":NaN
},
{
"stationID":2,
"stationName":"秦皇岛海域",
"longitude":119.629087,
"latitude":39.920391,
"forecastValue1":0.6,
"forecastValue2":0.4,
"forecastValue3":0.6,
"forecastValue4":NaN,
"forecastValue5":NaN
},
{
"stationID":3,
"stationName":"天津海域",
"longitude":117.704235,
"latitude":38.934324,
"forecastValue1":0.3,
"forecastValue2":0.2,
"forecastValue3":0.3,
"forecastValue4":NaN,
"forecastValue5":NaN
},
{
"stationID":4,
"stationName":"烟台海域",
"longitude":121.475689,
"latitude":37.478804,
"forecastValue1":1.4,
"forecastValue2":1.0,
"forecastValue3":0.3,
"forecastValue4":NaN,
"forecastValue5":NaN
},
{
"stationID":5,
"stationName":"青岛海域",
"longitude":120.372211,
"latitude":36.050753,
"forecastValue1":0.7,
"forecastValue2":0.4,
"forecastValue3":0.2,
"forecastValue4":NaN,
"forecastValue5":NaN
},
{
"stationID":6,
"stationName":"日照海域",
"longitude":119.570788,
"latitude":35.412249,
"forecastValue1":1.3,
"forecastValue2":0.9,
"forecastValue3":0.4,
"forecastValue4":NaN,
"forecastValue5":NaN
},
{
"stationID":7,
"stationName":"连云港海域",
"longitude":119.476987,
"latitude":34.766101,
"forecastValue1":1.3,
"forecastValue2":1.0,
"forecastValue3":0.5,
"forecastValue4":NaN,
"forecastValue5":NaN
},
{
"stationID":8,
"stationName":"上海海域",
"longitude":122.0,
"latitude":31.1,
"forecastValue1":1.3,
"forecastValue2":1.0,
"forecastValue3":0.8,
"forecastValue4":NaN,
"forecastValue5":NaN
},
{
"stationID":9,
"stationName":"宁波海域",
"longitude":121.680072,
"latitude":30.010602,
"forecastValue1":1.0,
"forecastValue2":0.7,
"forecastValue3":0.5,
"forecastValue4":NaN,
"forecastValue5":NaN
},
{
"stationID":10,
"stationName":"台州海域",
"longitude":121.43 ,
"latitude":28.68,
"forecastValue1":0.3,
"forecastValue2":0.3,
"forecastValue3":0.2,
"forecastValue4":NaN,
"forecastValue5":NaN
},
{
"stationID":11,
"stationName":"温州海域",
"longitude":120.862281,
"latitude":27.913787,
"forecastValue1":0.5,
"forecastValue2":0.5,
"forecastValue3":0.3,
"forecastValue4":NaN,
"forecastValue5":NaN
},
{
"stationID":12,
"stationName":"宁德海域",
"longitude":119.808048,
"latitude":26.605073,
"forecastValue1":0.6,
"forecastValue2":0.6,
"forecastValue3":0.4,
"forecastValue4":NaN,
"forecastValue5":NaN
},
{
"stationID":13,
"stationName":"福州海域",
"longitude":119.678315,
"latitude":25.933918,
"forecastValue1":1.8,
"forecastValue2":1.7,
"forecastValue3":1.3,
"forecastValue4":NaN,
"forecastValue5":NaN
},
{
"stationID":14,
"stationName":"厦门海域",
"longitude":118.177786,
"latitude":24.455545,
"forecastValue1":1.1,
"forecastValue2":1.1,
"forecastValue3":0.7,
"forecastValue4":NaN,
"forecastValue5":NaN
},
{
"stationID":15,
"stationName":"汕头海域",
"longitude":116.784324,
"latitude":23.3429,
"forecastValue1":1.3,
"forecastValue2":1.2,
"forecastValue3":0.9,
"forecastValue4":NaN,
"forecastValue5":NaN
},
{
"stationID":16,
"stationName":"深圳海域",
"longitude":114.313778,
"latitude":22.598381,
"forecastValue1":0.5,
"forecastValue2":0.5,
"forecastValue3":0.4,
"forecastValue4":NaN,
"forecastValue5":NaN
},
{
"stationID":17,
"stationName":"防城港海域",
"longitude":108.361067,
"latitude":21.612986,
"forecastValue1":0.5,
"forecastValue2":0.5,
"forecastValue3":0.5,
"forecastValue4":NaN,
"forecastValue5":NaN
},
{
"stationID":18,
"stationName":"北海海域",
"longitude":109.162751,
"latitude":21.407644,
"forecastValue1":0.7,
"forecastValue2":0.8,
"forecastValue3":0.7,
"forecastValue4":NaN,
"forecastValue5":NaN
},
{
"stationID":19,
"stationName":"海口海域",
"longitude":110.304542,
"latitude":20.037801,
"forecastValue1":1.4,
"forecastValue2":1.5,
"forecastValue3":1.3,
"forecastValue4":NaN,
"forecastValue5":NaN
},
{
"stationID":20,
"stationName":"三亚海域",
"longitude":109.508858,
"latitude":18.248093,
"forecastValue1":1.3,
"forecastValue2":1.4,
"forecastValue3":1.4,
"forecastValue4":NaN,
"forecastValue5":NaN
},
{
"stationID":21,
"stationName":"觉华岛",
"longitude":120.812369,
"latitude":40.504251,
"forecastValue1":0.7,
"forecastValue2":0.3,
"forecastValue3":0.2,
"forecastValue4":NaN,
"forecastValue5":NaN
},
{
"stationID":22,
"stationName":"长岛",
"longitude":120.695025,
"latitude":37.957708,
"forecastValue1":1.5,
"forecastValue2":0.8,
"forecastValue3":0.5,
"forecastValue4":NaN,
"forecastValue5":NaN
},
{
"stationID":23,
"stationName":"连岛",
"longitude":119.477774,
"latitude":34.765512,
"forecastValue1":1.3,
"forecastValue2":1.0,
"forecastValue3":0.5,
"forecastValue4":NaN,
"forecastValue5":NaN
},
{
"stationID":24,
"stationName":"嵊泗列岛",
"longitude":122.457588,
"latitude":30.731274,
"forecastValue1":1.4,
"forecastValue2":1.1,
"forecastValue3":0.9,
"forecastValue4":NaN,
"forecastValue5":NaN
},
{
"stationID":25,
"stationName":"南麂岛",
"longitude":121.107268,
"latitude":27.457506,
"forecastValue1":2.2,
"forecastValue2":2.2,
"forecastValue3":1.6,
"forecastValue4":NaN,
"forecastValue5":NaN
},
{
"stationID":26,
"stationName":"钓鱼岛",
"longitude":123.479395,
"latitude":25.750453,
"forecastValue1":3.1,
"forecastValue2":3.1,
"forecastValue3":2.3,
"forecastValue4":NaN,
"forecastValue5":NaN
},
{
"stationID":27,
"stationName":"湄洲岛",
"longitude":119.134928,
"latitude":25.069468,
"forecastValue1":1.6,
"forecastValue2":1.6,
"forecastValue3":1.0,
"forecastValue4":NaN,
"forecastValue5":NaN
},
{
"stationID":28,
"stationName":"上川岛",
"longitude":112.89,
"latitude":21.68,
"forecastValue1":2.1,
"forecastValue2":2.0,
"forecastValue3":1.7,
"forecastValue4":NaN,
"forecastValue5":NaN
},
{
"stationID":29,
"stationName":"涠洲岛",
"longitude":109.114512,
"latitude":21.042738,
"forecastValue1":1.2,
"forecastValue2":1.1,
"forecastValue3":1.0,
"forecastValue4":NaN,
"forecastValue5":NaN
},
{
"stationID":30,
"stationName":"永兴岛",
"longitude":112.354514,
"latitude":16.840138,
"forecastValue1":2.3,
"forecastValue2":2.9,
"forecastValue3":2.8,
"forecastValue4":NaN,
"forecastValue5":NaN
},
{
"stationID":31,
"stationName":"黄岩岛",
"longitude":117.773555,
"latitude":15.155328,
"forecastValue1":1.7,
"forecastValue2":2.3,
"forecastValue3":2.2,
"forecastValue4":NaN,
"forecastValue5":NaN
},
{
"stationID":32,
"stationName":"永暑礁",
"longitude":112.900485,
"latitude":9.55496,
"forecastValue1":0.8,
"forecastValue2":1.5,
"forecastValue3":1.9,
"forecastValue4":NaN,
"forecastValue5":NaN
}
]